[{"genre": "Greek", "latitude": 37.3764634, "name": "Athena Grill", "longitude": -121.9564153, "address": "1505 Space Park Dr,Santa Clara"}, {"genre": "Fast Food", "latitude": 37.4157687, "name": "Chick-Fil-A", "longitude": -121.9535059, "address": "53 Headquarters Dr,San Jose"}, {"genre": "Greek", "latitude": 37.384261, "name": "Agape Grill", "longitude": -122.0078, "address": "845 Stewart Dr,Ste A,Sunnyvale"}, {"genre": "Middle Eastern", "latitude": 37.387903, "name": "Sunnyvale Cafe", "longitude": -122.0245064, "address": "223 E Maude Ave,Sunnyvale"}, {"genre": "Japanese", "latitude": 37.3881652, "name": "Gombei Bento", "longitude": -122.0252079, "address": "155 E Maude Ave,Sunnyvale"}, {"genre": "Middle Eastern", "latitude": 37.376177, "name": "DishDash", "longitude": -122.0301356, "address": "190 S Murphy Ave,Sunnyvale"}, {"genre": "Middle Eastern", "latitude": 37.3943205, "name": "Dish N Dash", "longitude": -122.0288151, "address": "736 N Mathilda Ave,Sunnyvale"}, {"genre": "Afghan", "latitude": 37.3709266, "name": "Kabul", "longitude": -122.0420869, "address": "833 W El Camino Real,Sunnyvale"}, {"genre": "Indian", "latitude": 37.3903623, "name": "Little India Cafe", "longitude": -122.0419328, "address": "415 N Mary Ave,Ste 101,Sunnyvale"}, {"genre": "Himalayan/Nepalese", "latitude": 37.3770111, "name": "Himalayan Kitchen", "longitude": -122.0624894, "address": "820 E El Camino Real,Ste C,Mountain View"}]